{"businesses": [{"id": "Wl1cgbsFj6qrMk8Pe4vP2A", "alias": "flatiron-plaza-new-york", "name": "Flatiron Plaza", "image_url": "https://s3-media4.fl.yelpcdn.com/bphoto/Ct4xnqeJgxtKIviYQiSTXQ/o.jpg", "is_closed": false, "url": "https://www.yelp.com/biz/flatiron-plaza-new-york?adjust_creative=pvg3Cok-C3jUzN7Dr5Hirg&utm_campaign=yelp_api_v3&utm_medium=api_v3_business_search&utm_source=pvg3Cok-C3jUzN7Dr5Hirg", "review_count": 17, "categories": [{"alias": "parks", "title": "Parks"}], "rating": 4.0, "coordinates": {"latitude": 40.7418637326629, "longitude": -73.989138007164}, "transactions": [], "location": {"address1": "23RD St And 5th Ave", "address2": "", "address3": "", "city": "New York", "zip_code": "10010", "country": "US", "state": "NY", "display_address": ["23RD St And 5th Ave", "New York, NY 10010"]}, "phone": "", "display_phone": "", "distance": 629.9659576021851}, {"id": "Ym_PCIvKFA5QUu7dDh20Fw", "alias": "monas-new-york", "name": "Mona's", "image_url": "https://s3-media2.fl.yelpcdn.com/bphoto/bdahOPS0Si7hGFThCHUDTw/o.jpg", "is_closed": false, "url": "https://www.yelp.com/biz/monas-new-york?adjust_creative=pvg3Cok-C3jUzN7Dr5Hirg&utm_campaign=yelp_api_v3&utm_medium=api_v3_business_search&utm_source=pvg3Cok-C3jUzN7Dr5Hirg", "review_count": 105, "categories": [{"alias": "divebars", "title": "Dive Bars"}, {"alias": "pubs", "title": "Pubs"}], "rating": 4.0, "coordinates": {"latitude": 40.729198, "longitude": -73.978523}, "transactions": ["delivery"], "price": "$", "location": {"address1": "224 Avenue B", "address2": "", "address3": "", "city": "New York", "zip_code": "10009", "country": "US", "state": "NY", "display_address": ["224 Avenue B", "New York, NY 10009"]}, "phone": "+12123533780", "display_phone": "(212) 353-3780", "distance": 1135.6888352675696}, {"id": "F27P07xOr5E8u4_JZS1W7Q", "alias": "cousins-maine-lobster-restaurant-new-york-new-york", "name": "Cousins Maine Lobster Restaurant - New York", "image_url": "https://s3-media4.fl.yelpcdn.com/bphoto/siAHVDh7tT49JdIiK_QNCw/o.jpg", "is_closed": false, "url": "https://www.yelp.com/biz/cousins-maine-lobster-restaurant-new-york-new-york?adjust_creative=pvg3Cok-C3jUzN7Dr5Hirg&utm_campaign=yelp_api_v3&utm_medium=api_v3_business_search&utm_source=pvg3Cok-C3jUzN7Dr5Hirg", "review_count": 185, "categories": [{"alias": "seafood", "title": "Seafood"}], "rating": 4.0, "coordinates": {"latitude": 40.741214, "longitude": -73.98321}, "transactions": ["delivery", "pickup"], "price": "$$", "location": {"address1": "77 Lexington Ave", "address2": "", "address3": null, "city": "New York", "zip_code": "10010", "country": "US", "state": "NY", "display_address": ["77 Lexington Ave", "New York, NY 10010"]}, "phone": "+12126514293", "display_phone": "(212) 651-4293", "distance": 263.28640535718677}, {"id": "wxUTM-FkpCvnoTGJfSXkWg", "alias": "china-king-new-york-3", "name": "China King", "image_url": "https://s3-media2.fl.yelpcdn.com/bphoto/2v-oehujs-6mQZpoQm3lIA/o.jpg", "is_closed": false, "url": "https://www.yelp.com/biz/china-king-new-york-3?adjust_creative=pvg3Cok-C3jUzN7Dr5Hirg&utm_campaign=yelp_api_v3&utm_medium=api_v3_business_search&utm_source=pvg3Cok-C3jUzN7Dr5Hirg", "review_count": 42, "categories": [{"alias": "chinese", "title": "Chinese"}], "rating": 3.0, "coordinates": {"latitude": 40.738249, "longitude": -73.983329}, "transactions": ["delivery", "pickup"], "price": "$", "location": {"address1": "285 3rd Ave", "address2": "", "address3": null, "city": "New York", "zip_code": "10010", "country": "US", "state": "NY", "display_address": ["285 3rd Ave", "New York, NY 10010"]}, "phone": "+12127259888", "display_phone": "(212) 725-9888", "distance": 82.32529917464134}, {"id": "jhFqmhHRDf7TZcITsKntJA", "alias": "plump-dumpling-new-york", "name": "Plump Dumpling", "image_url": "https://s3-media4.fl.yelpcdn.com/bphoto/W6ahvXc1B6jxxwapptmaxw/o.jpg", "is_closed": false, "url": "https://www.yelp.com/biz/plump-dumpling-new-york?adjust_creative=pvg3Cok-C3jUzN7Dr5Hirg&utm_campaign=yelp_api_v3&utm_medium=api_v3_business_search&utm_source=pvg3Cok-C3jUzN7Dr5Hirg", "review_count": 250, "categories": [{"alias": "chinese", "title": "Chinese"}, {"alias": "vietnamese", "title": "Vietnamese"}], "rating": 2.5, "coordinates": {"latitude": 40.730397, "longitude": -73.9861}, "transactions": ["delivery", "pickup"], "price": "$", "location": {"address1": "174 2nd Ave", "address2": "", "address3": "", "city": "New York", "zip_code": "10003", "country": "US", "state": "NY", "display_address": ["174 2nd Ave", "New York, NY 10003"]}, "phone": "+12125051668", "display_phone": "(212) 505-1668", "distance": 982.2516665882537}, {"id": "5oa4qurDaS9YACRZeTNywQ", "alias": "bluestone-lane-new-york-48", "name": "Bluestone Lane", "image_url": "https://s3-media2.fl.yelpcdn.com/bphoto/QQx-QbYALCkW_VXsT00oLA/o.jpg", "is_closed": false, "url": "https://www.yelp.com/biz/bluestone-lane-new-york-48?adjust_creative=pvg3Cok-C3jUzN7Dr5Hirg&utm_campaign=yelp_api_v3&utm_medium=api_v3_business_search&utm_source=pvg3Cok-C3jUzN7Dr5Hirg", "review_count": 20, "categories": [{"alias": "coffee", "title": "Coffee & Tea"}, {"alias": "gluten_free", "title": "Gluten-Free"}, {"alias": "breakfast_brunch", "title": "Breakfast & Brunch"}], "rating": 4.0, "coordinates": {"latitude": 40.74134948864859, "longitude": -73.98638623490406}, "transactions": ["delivery", "pickup"], "location": {"address1": "11 Madison Ave", "address2": null, "address3": null, "city": "New York", "zip_code": "10010", "country": "US", "state": "NY", "display_address": ["11 Madison Ave", "New York, NY 10010"]}, "phone": "+17183746858", "display_phone": "(718) 374-6858", "distance": 409.71809706366497}, {"id": "fB-_Xk7Razmv8V4PHLUAYw", "alias": "saltbae-burger-new-york", "name": "Saltbae Burger", "image_url": "https://s3-media1.fl.yelpcdn.com/bphoto/7OBTR-cENCH_AmcYlJzVFg/o.jpg", "is_closed": false, "url": "https://www.yelp.com/biz/saltbae-burger-new-york?adjust_creative=pvg3Cok-C3jUzN7Dr5Hirg&utm_campaign=yelp_api_v3&utm_medium=api_v3_business_search&utm_source=pvg3Cok-C3jUzN7Dr5Hirg", "review_count": 50, "categories": [{"alias": "burgers", "title": "Burgers"}], "rating": 3.5, "coordinates": {"latitude": 40.7371464, "longitude": -73.988943}, "transactions": ["delivery", "pickup"], "price": "$$", "location": {"address1": "220 Park Ave S", "address2": "", "address3": null, "city": "New York", "zip_code": "10003", "country": "US", "state": "NY", "display_address": ["220 Park Ave S", "New York, NY 10003"]}, "phone": "", "display_phone": "", "distance": 552.4520461864224}, {"id": "01m-oqxaCifh0s0eU03bBg", "alias": "asia-express-new-york-2", "name": "Asia Express", "image_url": "https://s3-media4.fl.yelpcdn.com/bphoto/fv0K1qXodJGy54joLHm8Xw/o.jpg", "is_closed": false, "url": "https://www.yelp.com/biz/asia-express-new-york-2?adjust_creative=pvg3Cok-C3jUzN7Dr5Hirg&utm_campaign=yelp_api_v3&utm_medium=api_v3_business_search&utm_source=pvg3Cok-C3jUzN7Dr5Hirg", "review_count": 65, "categories": [{"alias": "chinese", "title": "Chinese"}], "rating": 3.0, "coordinates": {"latitude": 40.74094, "longitude": -73.97891}, "transactions": ["delivery", "pickup"], "price": "$", "location": {"address1": "493 2nd Ave", "address2": "", "address3": "", "city": "New York", "zip_code": "10016", "country": "US", "state": "NY", "display_address": ["493 2nd Ave", "New York, NY 10016"]}, "phone": "+12126869888", "display_phone": "(212) 686-9888", "distance": 396.2068264673671}, {"id": "VR4XbOgr7Hm0S-awZckb1A", "alias": "pret-a-manger-new-york-44", "name": "Pret A Manger", "image_url": "https://s3-media2.fl.yelpcdn.com/bphoto/iRsSVevO2TtDIQrbpZdlkA/o.jpg", "is_closed": false, "url": "https://www.yelp.com/biz/pret-a-manger-new-york-44?adjust_creative=pvg3Cok-C3jUzN7Dr5Hirg&utm_campaign=yelp_api_v3&utm_medium=api_v3_business_search&utm_source=pvg3Cok-C3jUzN7Dr5Hirg", "review_count": 34, "categories": [{"alias": "sandwiches", "title": "Sandwiches"}, {"alias": "coffee", "title": "Coffee & Tea"}, {"alias": "breakfast_brunch", "title": "Breakfast & Brunch"}], "rating": 4.0, "coordinates": {"latitude": 40.741056, "longitude": -73.9941616}, "transactions": ["delivery", "pickup"], "price": "$", "location": {"address1": "655 6th Avenue", "address2": "", "address3": "", "city": "New York", "zip_code": "10010", "country": "US", "state": "NY", "display_address": ["655 6th Avenue", "New York, NY 10010"]}, "phone": "+12122552087", "display_phone": "(212) 255-2087", "distance": 988.3251629977904}, {"id": "QMrLryZNAIHV1K2UXsuaug", "alias": "strip-house-speakeasy-new-york", "name": "Strip House Speakeasy", "image_url": "https://s3-media3.fl.yelpcdn.com/bphoto/eeXXvOmfIGNlMUrG2GMKiA/o.jpg", "is_closed": false, "url": "https://www.yelp.com/biz/strip-house-speakeasy-new-york?adjust_creative=pvg3Cok-C3jUzN7Dr5Hirg&utm_campaign=yelp_api_v3&utm_medium=api_v3_business_search&utm_source=pvg3Cok-C3jUzN7Dr5Hirg", "review_count": 55, "categories": [{"alias": "steak", "title": "Steakhouses"}], "rating": 3.5, "coordinates": {"latitude": 40.73442033334392, "longitude": -73.99332718425902}, "transactions": [], "price": "$$$", "location": {"address1": "11 E 12th St", "address2": "", "address3": "", "city": "New York", "zip_code": "10003", "country": "US", "state": "NY", "display_address": ["11 E 12th St", "New York, NY 10003"]}, "phone": "+12128389197", "display_phone": "(212) 838-9197", "distance": 1016.0903047009367}, {"id": "Lfx2qsOLfv7Lz_hf5RXfLg", "alias": "chipotle-mexican-grill-new-york-7", "name": "Chipotle Mexican Grill", "image_url": "https://s3-media2.fl.yelpcdn.com/bphoto/m-PF-dzXJ0Z0BaBt7qwezQ/o.jpg", "is_closed": false, "url": "https://www.yelp.com/biz/chipotle-mexican-grill-new-york-7?adjust_creative=pvg3Cok-C3jUzN7Dr5Hirg&utm_campaign=yelp_api_v3&utm_medium=api_v3_business_search&utm_source=pvg3Cok-C3jUzN7Dr5Hirg", "review_count": 121, "categories": [{"alias": "mexican", "title": "Mexican"}, {"alias": "hotdogs", "title": "Fast Food"}], "rating": 3.0, "coordinates": {"latitude": 40.7342197620958, "longitude": -73.9888242756081}, "transactions": ["delivery", "pickup"], "price": "$", "location": {"address1": "117 E 14th St", "address2": "", "address3": "", "city": "New York", "zip_code": "10003", "country": "US", "state": "NY", "display_address": ["117 E 14th St", "New York, NY 10003"]}, "phone": "+12122600641", "display_phone": "(212) 260-0641", "distance": 724.8501271320142}, {"id": "VbEBBk78LFMJ-aEybF4PtQ", "alias": "cofesta-new-york-3", "name": "Cofesta", "image_url": "https://s3-media2.fl.yelpcdn.com/bphoto/6T3ayJZgzwX_r3kXLcskDw/o.jpg", "is_closed": false, "url": "https://www.yelp.com/biz/cofesta-new-york-3?adjust_creative=pvg3Cok-C3jUzN7Dr5Hirg&utm_campaign=yelp_api_v3&utm_medium=api_v3_business_search&utm_source=pvg3Cok-C3jUzN7Dr5Hirg", "review_count": 44, "categories": [{"alias": "coffee", "title": "Coffee & Tea"}, {"alias": "venues", "title": "Venues & Event Spaces"}, {"alias": "breakfast_brunch", "title": "Breakfast & Brunch"}], "rating": 4.0, "coordinates": {"latitude": 40.74451, "longitude": -73.99014}, "transactions": ["delivery"], "price": "$$", "location": {"address1": "33 W 26th St", "address2": null, "address3": "", "city": "New York", "zip_code": "10010", "country": "US", "state": "NY", "display_address": ["33 W 26th St", "New York, NY 10010"]}, "phone": "", "display_phone": "", "distance": 881.7315702107276}, {"id": "G8jUbISXt5EsKD6oVhdttA", "alias": "firecracker-wings-new-york", "name": "Firecracker Wings", "image_url": "https://s3-media1.fl.yelpcdn.com/bphoto/8WPXzP1zJYzbjgT11NFQ1Q/o.jpg", "is_closed": false, "url": "https://www.yelp.com/biz/firecracker-wings-new-york?adjust_creative=pvg3Cok-C3jUzN7Dr5Hirg&utm_campaign=yelp_api_v3&utm_medium=api_v3_business_search&utm_source=pvg3Cok-C3jUzN7Dr5Hirg", "review_count": 9, "categories": [{"alias": "chicken_wings", "title": "Chicken Wings"}], "rating": 4.5, "coordinates": {"latitude": 40.738834, "longitude": -73.979786}, "transactions": ["delivery", "pickup"], "location": {"address1": "430 2nd Ave", "address2": null, "address3": "", "city": "New York", "zip_code": "10010", "country": "US", "state": "NY", "display_address": ["430 2nd Ave", "New York, NY 10010"]}, "phone": "+16468385111", "display_phone": "(646) 838-5111", "distance": 248.89803718933115}, {"id": "bFg9sE5jaQuscKh67p1akA", "alias": "poster-house-new-york", "name": "Poster House", "image_url": "https://s3-media3.fl.yelpcdn.com/bphoto/wGWR14cLj3xn230tOM1fbw/o.jpg", "is_closed": false, "url": "https://www.yelp.com/biz/poster-house-new-york?adjust_creative=pvg3Cok-C3jUzN7Dr5Hirg&utm_campaign=yelp_api_v3&utm_medium=api_v3_business_search&utm_source=pvg3Cok-C3jUzN7Dr5Hirg", "review_count": 23, "categories": [{"alias": "artmuseums", "title": "Art Museums"}, {"alias": "galleries", "title": "Art Galleries"}], "rating": 4.5, "coordinates": {"latitude": 40.7433885071265, "longitude": -73.9935075903394}, "transactions": [], "location": {"address1": "119 W 23rd St", "address2": "", "address3": null, "city": "New York", "zip_code": "10011", "country": "US", "state": "NY", "display_address": ["119 W 23rd St", "New York, NY 10011"]}, "phone": "+19177222439", "display_phone": "(917) 722-2439", "distance": 1033.3123191344023}, {"id": "rcu7q3OonsN8op7Vz6BiSw", "alias": "the-vnyl-new-york-6", "name": "The VNYL", "image_url": "https://s3-media2.fl.yelpcdn.com/bphoto/bRXAT9GiB6qA7xHgYWwzlg/o.jpg", "is_closed": false, "url": "https://www.yelp.com/biz/the-vnyl-new-york-6?adjust_creative=pvg3Cok-C3jUzN7Dr5Hirg&utm_campaign=yelp_api_v3&utm_medium=api_v3_business_search&utm_source=pvg3Cok-C3jUzN7Dr5Hirg", "review_count": 150, "categories": [{"alias": "lounges", "title": "Lounges"}, {"alias": "cocktailbars", "title": "Cocktail Bars"}], "rating": 2.5, "coordinates": {"latitude": 40.73251, "longitude": -73.9881599}, "transactions": ["delivery", "pickup"], "price": "$$", "location": {"address1": "100 3rd Ave", "address2": null, "address3": "", "city": "New York", "zip_code": "10003", "country": "US", "state": "NY", "display_address": ["100 3rd Ave", "New York, NY 10003"]}, "phone": "+12126332000", "display_phone": "(212) 633-2000", "distance": 838.7677311097952}, {"id": "Pb5WVn8D5Xj26zpc9PutUw", "alias": "wanpo-tea-shop-new-york-3", "name": "Wanpo Tea Shop", "image_url": "https://s3-media2.fl.yelpcdn.com/bphoto/nGx1QxvVklgMWmq9rRLjcg/o.jpg", "is_closed": false, "url": "https://www.yelp.com/biz/wanpo-tea-shop-new-york-3?adjust_creative=pvg3Cok-C3jUzN7Dr5Hirg&utm_campaign=yelp_api_v3&utm_medium=api_v3_business_search&utm_source=pvg3Cok-C3jUzN7Dr5Hirg", "review_count": 30, "categories": [{"alias": "bubbletea", "title": "Bubble Tea"}], "rating": 4.5, "coordinates": {"latitude": 40.73155209065394, "longitude": -73.9941602}, "transactions": ["delivery", "pickup"], "price": "$$", "location": {"address1": "37 E 8th St", "address2": "", "address3": null, "city": "New York", "zip_code": "10003", "country": "US", "state": "NY", "display_address": ["37 E 8th St", "New York, NY 10003"]}, "phone": "+12129958349", "display_phone": "(212) 995-8349", "distance": 1256.6416350761276}, {"id": "q2s4Whjr3FUB8wB_KrMudw", "alias": "purplethai-new-york", "name": "PurpleThai", "image_url": "https://s3-media3.fl.yelpcdn.com/bphoto/JTBrnODBv8KralHx36n1UQ/o.jpg", "is_closed": false, "url": "https://www.yelp.com/biz/purplethai-new-york?adjust_creative=pvg3Cok-C3jUzN7Dr5Hirg&utm_campaign=yelp_api_v3&utm_medium=api_v3_business_search&utm_source=pvg3Cok-C3jUzN7Dr5Hirg", "review_count": 32, "categories": [{"alias": "thai", "title": "Thai"}, {"alias": "vegan", "title": "Vegan"}, {"alias": "vegetarian", "title": "Vegetarian"}], "rating": 4.0, "coordinates": {"latitude": 40.746322406761514, "longitude": -73.98828702364186}, "transactions": ["delivery", "pickup"], "price": "$$", "location": {"address1": "1204 Broadway", "address2": "", "address3": null, "city": "New York", "zip_code": "10001", "country": "US", "state": "NY", "display_address": ["1204 Broadway", "New York, NY 10001"]}, "phone": "+18887758424", "display_phone": "(888) 775-8424", "distance": 949.4593819838327}, {"id": "8iWto1WAB0eO91Kp-CYu1g", "alias": "starbucks-new-york-149", "name": "Starbucks", "image_url": "https://s3-media2.fl.yelpcdn.com/bphoto/BUn_IPZIDHqAkdw5XxxLDg/o.jpg", "is_closed": false, "url": "https://www.yelp.com/biz/starbucks-new-york-149?adjust_creative=pvg3Cok-C3jUzN7Dr5Hirg&utm_campaign=yelp_api_v3&utm_medium=api_v3_business_search&utm_source=pvg3Cok-C3jUzN7Dr5Hirg", "review_count": 88, "categories": [{"alias": "coffee", "title": "Coffee & Tea"}], "rating": 3.0, "coordinates": {"latitude": 40.743799, "longitude": -73.976832}, "transactions": ["delivery"], "price": "$", "location": {"address1": "585 2nd Ave", "address2": "", "address3": "", "city": "New York", "zip_code": "10016", "country": "US", "state": "NY", "display_address": ["585 2nd Ave", "New York, NY 10016"]}, "phone": "+12126841299", "display_phone": "(212) 684-1299", "distance": 743.5134430243791}, {"id": "ggXGOHshLOA3EEQ7aRwmDQ", "alias": "speedys-new-york", "name": "Speedy's", "image_url": "https://s3-media1.fl.yelpcdn.com/bphoto/L4BCdeKgSPwuPNW09KRM7A/o.jpg", "is_closed": false, "url": "https://www.yelp.com/biz/speedys-new-york?adjust_creative=pvg3Cok-C3jUzN7Dr5Hirg&utm_campaign=yelp_api_v3&utm_medium=api_v3_business_search&utm_source=pvg3Cok-C3jUzN7Dr5Hirg", "review_count": 191, "categories": [{"alias": "delis", "title": "Delis"}], "rating": 3.0, "coordinates": {"latitude": 40.7482511, "longitude": -73.9884413}, "transactions": ["delivery", "pickup"], "price": "$$", "location": {"address1": "1271 Broadway", "address2": "", "address3": "", "city": "New York", "zip_code": "10001", "country": "US", "state": "NY", "display_address": ["1271 Broadway", "New York, NY 10001"]}, "phone": "+12126838997", "display_phone": "(212) 683-8997", "distance": 1146.8287881345489}, {"id": "lqbj9LGZq7MnyAlxGxvsfA", "alias": "holey-cream-new-york-2", "name": "Holey Cream", "image_url": "https://s3-media3.fl.yelpcdn.com/bphoto/6-P5xlLsH4JacL2oSzw8lw/o.jpg", "is_closed": false, "url": "https://www.yelp.com/biz/holey-cream-new-york-2?adjust_creative=pvg3Cok-C3jUzN7Dr5Hirg&utm_campaign=yelp_api_v3&utm_medium=api_v3_business_search&utm_source=pvg3Cok-C3jUzN7Dr5Hirg", "review_count": 64, "categories": [{"alias": "donuts", "title": "Donuts"}, {"alias": "icecream", "title": "Ice Cream & Frozen Yogurt"}], "rating": 3.5, "coordinates": {"latitude": 40.74634, "longitude": -73.9779}, "transactions": ["delivery", "pickup"], "location": {"address1": "522 3rd Ave", "address2": "", "address3": null, "city": "New York", "zip_code": "10016", "country": "US", "state": "NY", "display_address": ["522 3rd Ave", "New York, NY 10016"]}, "phone": "+12124478400", "display_phone": "(212) 447-8400", "distance": 932.3479717554277}, {"id": "K54H8wyxGjeFVHjHF9LvMg", "alias": "bounce-sporting-club-new-york-3", "name": "Bounce Sporting Club", "image_url": "https://s3-media1.fl.yelpcdn.com/bphoto/fPGaAJAsp8Xkdx9n9KhQww/o.jpg", "is_closed": false, "url": "https://www.yelp.com/biz/bounce-sporting-club-new-york-3?adjust_creative=pvg3Cok-C3jUzN7Dr5Hirg&utm_campaign=yelp_api_v3&utm_medium=api_v3_business_search&utm_source=pvg3Cok-C3jUzN7Dr5Hirg", "review_count": 400, "categories": [{"alias": "sportsbars", "title": "Sports Bars"}], "rating": 2.0, "coordinates": {"latitude": 40.7415466, "longitude": -73.9932351}, "transactions": ["delivery", "pickup"], "price": "$$", "location": {"address1": "55 W 21st St", "address2": null, "address3": null, "city": "New York", "zip_code": "10010", "country": "US", "state": "NY", "display_address": ["55 W 21st St", "New York, NY 10010"]}, "phone": "+12126758007", "display_phone": "(212) 675-8007", "distance": 907.8757669431956}, {"id": "M5uz_XXduI7dVrTK6DzWfA", "alias": "chipotle-mexican-grill-new-york-13", "name": "Chipotle Mexican Grill", "image_url": "https://s3-media2.fl.yelpcdn.com/bphoto/tBDjYMOWi1zdqZJfzKvOcw/o.jpg", "is_closed": false, "url": "https://www.yelp.com/biz/chipotle-mexican-grill-new-york-13?adjust_creative=pvg3Cok-C3jUzN7Dr5Hirg&utm_campaign=yelp_api_v3&utm_medium=api_v3_business_search&utm_source=pvg3Cok-C3jUzN7Dr5Hirg", "review_count": 95, "categories": [{"alias": "mexican", "title": "Mexican"}, {"alias": "hotdogs", "title": "Fast Food"}], "rating": 3.0, "coordinates": {"latitude": 40.7373410485017, "longitude": -73.9900453717756}, "transactions": ["delivery", "pickup"], "price": "$", "location": {"address1": "864 Broadway", "address2": "Frnt 1", "address3": "", "city": "New York", "zip_code": "10003", "country": "US", "state": "NY", "display_address": ["864 Broadway", "Frnt 1", "New York, NY 10003"]}, "phone": "+12122537860", "display_phone": "(212) 253-7860", "distance": 634.2549390152014}, {"id": "GR8hIIr8Pg7oY-woPq8HwQ", "alias": "yehcakes-new-york", "name": "YehCakes", "image_url": "https://s3-media4.fl.yelpcdn.com/bphoto/JQf2CjfwjF4Cvlmk21hoMQ/o.jpg", "is_closed": false, "url": "https://www.yelp.com/biz/yehcakes-new-york?adjust_creative=pvg3Cok-C3jUzN7Dr5Hirg&utm_campaign=yelp_api_v3&utm_medium=api_v3_business_search&utm_source=pvg3Cok-C3jUzN7Dr5Hirg", "review_count": 35, "categories": [{"alias": "cupcakes", "title": "Cupcakes"}, {"alias": "desserts", "title": "Desserts"}, {"alias": "customcakes", "title": "Custom Cakes"}], "rating": 5.0, "coordinates": {"latitude": 40.7382791151318, "longitude": -73.9797205267059}, "transactions": [], "price": "$$", "location": {"address1": null, "address2": null, "address3": "", "city": "New York", "zip_code": "10010", "country": "US", "state": "NY", "display_address": ["New York, NY 10010"]}, "phone": "+16468839347", "display_phone": "(646) 883-9347", "distance": 266.9112083139717}, {"id": "jTUHTXbwMAVQWMvEgPBHyg", "alias": "just-salad-new-york-12", "name": "Just Salad", "image_url": "https://s3-media2.fl.yelpcdn.com/bphoto/KvAXxLgjezdvixcWBa2DWw/o.jpg", "is_closed": false, "url": "https://www.yelp.com/biz/just-salad-new-york-12?adjust_creative=pvg3Cok-C3jUzN7Dr5Hirg&utm_campaign=yelp_api_v3&utm_medium=api_v3_business_search&utm_source=pvg3Cok-C3jUzN7Dr5Hirg", "review_count": 193, "categories": [{"alias": "salad", "title": "Salad"}, {"alias": "vegetarian", "title": "Vegetarian"}], "rating": 3.5, "coordinates": {"latitude": 40.7313273493824, "longitude": -73.9937896921767}, "transactions": ["delivery", "pickup"], "price": "$$", "location": {"address1": "53 E 8th St", "address2": "", "address3": "", "city": "New York", "zip_code": "10003", "country": "US", "state": "NY", "display_address": ["53 E 8th St", "New York, NY 10003"]}, "phone": "+18666733757", "display_phone": "(866) 673-3757", "distance": 1249.6409288808659}, {"id": "NgY0RmhbpgAYb5t1jWT3OA", "alias": "yaso-new-york", "name": "Yaso", "image_url": "https://s3-media3.fl.yelpcdn.com/bphoto/gwmOyI_mSw3GlW1cSPH9Ow/o.jpg", "is_closed": false, "url": "https://www.yelp.com/biz/yaso-new-york?adjust_creative=pvg3Cok-C3jUzN7Dr5Hirg&utm_campaign=yelp_api_v3&utm_medium=api_v3_business_search&utm_source=pvg3Cok-C3jUzN7Dr5Hirg", "review_count": 58, "categories": [{"alias": "dimsum", "title": "Dim Sum"}, {"alias": "shanghainese", "title": "Shanghainese"}, {"alias": "noodles", "title": "Noodles"}], "rating": 4.0, "coordinates": {"latitude": 40.730208, "longitude": -73.994044}, "transactions": ["delivery", "pickup"], "price": "$", "location": {"address1": "289 Mercer St", "address2": null, "address3": null, "city": "New York", "zip_code": "10003", "country": "US", "state": "NY", "display_address": ["289 Mercer St", "New York, NY 10003"]}, "phone": "+19175221600", "display_phone": "(917) 522-1600", "distance": 1348.3681857523459}, {"id": "8bgaLNvo56fIqCbWA-nszg", "alias": "skirt-steak-new-york", "name": "Skirt Steak", "image_url": "https://s3-media1.fl.yelpcdn.com/bphoto/r-sRkK8WR4KLkBgGFw5vYw/o.jpg", "is_closed": false, "url": "https://www.yelp.com/biz/skirt-steak-new-york?adjust_creative=pvg3Cok-C3jUzN7Dr5Hirg&utm_campaign=yelp_api_v3&utm_medium=api_v3_business_search&utm_source=pvg3Cok-C3jUzN7Dr5Hirg", "review_count": 93, "categories": [{"alias": "steak", "title": "Steakhouses"}, {"alias": "beer_and_wine", "title": "Beer, Wine & Spirits"}, {"alias": "desserts", "title": "Desserts"}], "rating": 3.5, "coordinates": {"latitude": 40.74712, "longitude": -73.99027}, "transactions": [], "location": {"address1": "835 Sixth Ave", "address2": null, "address3": "", "city": "New York", "zip_code": "10001", "country": "US", "state": "NY", "display_address": ["835 Sixth Ave", "New York, NY 10001"]}, "phone": "+12122014065", "display_phone": "(212) 201-4065", "distance": 1112.045606722678}, {"id": "sinxb1F7g1GEm01XSB3qCw", "alias": "sing-sing-karaoke-st-marks-new-york-3", "name": "Sing Sing Karaoke - St Marks", "image_url": "https://s3-media2.fl.yelpcdn.com/bphoto/eb1_xCnRa9bkh-3iBPJpnw/o.jpg", "is_closed": false, "url": "https://www.yelp.com/biz/sing-sing-karaoke-st-marks-new-york-3?adjust_creative=pvg3Cok-C3jUzN7Dr5Hirg&utm_campaign=yelp_api_v3&utm_medium=api_v3_business_search&utm_source=pvg3Cok-C3jUzN7Dr5Hirg", "review_count": 254, "categories": [{"alias": "karaoke", "title": "Karaoke"}, {"alias": "bars", "title": "Bars"}], "rating": 3.0, "coordinates": {"latitude": 40.7293556, "longitude": -73.9891515}, "transactions": [], "price": "$$", "location": {"address1": "9 St Marks Pl", "address2": "", "address3": "", "city": "New York", "zip_code": "10003", "country": "US", "state": "NY", "display_address": ["9 St Marks Pl", "New York, NY 10003"]}, "phone": "+12123877800", "display_phone": "(212) 387-7800", "distance": 1185.6645390086612}, {"id": "csakKl8IqAtTmPv7Hv-m4g", "alias": "oec-bun-and-ramen-new-york", "name": "OEC Bun & Ramen", "image_url": "https://s3-media1.fl.yelpcdn.com/bphoto/fEL9WSaknLRDcCI82vXFyQ/o.jpg", "is_closed": false, "url": "https://www.yelp.com/biz/oec-bun-and-ramen-new-york?adjust_creative=pvg3Cok-C3jUzN7Dr5Hirg&utm_campaign=yelp_api_v3&utm_medium=api_v3_business_search&utm_source=pvg3Cok-C3jUzN7Dr5Hirg", "review_count": 9, "categories": [{"alias": "taiwanese", "title": "Taiwanese"}, {"alias": "chinese", "title": "Chinese"}, {"alias": "ramen", "title": "Ramen"}], "rating": 4.5, "coordinates": {"latitude": 40.740073, "longitude": -73.984621}, "transactions": ["delivery", "pickup"], "location": {"address1": "34 Lexington Ave", "address2": "", "address3": null, "city": "New York", "zip_code": "10010", "country": "US", "state": "NY", "display_address": ["34 Lexington Ave", "New York, NY 10010"]}, "phone": "+19294218949", "display_phone": "(929) 421-8949", "distance": 201.00290991167097}, {"id": "jjBcUeE4-Z8VoGFaYkdxvw", "alias": "sweetgreen-new-york-25", "name": "sweetgreen", "image_url": "https://s3-media2.fl.yelpcdn.com/bphoto/-7JlvJ1WyniY4Ds3xrws-w/o.jpg", "is_closed": false, "url": "https://www.yelp.com/biz/sweetgreen-new-york-25?adjust_creative=pvg3Cok-C3jUzN7Dr5Hirg&utm_campaign=yelp_api_v3&utm_medium=api_v3_business_search&utm_source=pvg3Cok-C3jUzN7Dr5Hirg", "review_count": 55, "categories": [{"alias": "salad", "title": "Salad"}, {"alias": "vegetarian", "title": "Vegetarian"}], "rating": 3.5, "coordinates": {"latitude": 40.7339738378144, "longitude": -73.992542}, "transactions": ["delivery", "pickup"], "price": "$$", "location": {"address1": "101 University Pl", "address2": "", "address3": null, "city": "New York", "zip_code": "10003", "country": "US", "state": "NY", "display_address": ["101 University Pl", "New York, NY 10003"]}, "phone": "+19178321900", "display_phone": "(917) 832-1900", "distance": 985.3645837315267}, {"id": "A6TM2mXFQZt6Mei-UXyptw", "alias": "rose-bakery-new-york", "name": "Rose Bakery", "image_url": "https://s3-media3.fl.yelpcdn.com/bphoto/sLID2gUpjIUkmhm2hMtp9A/o.jpg", "is_closed": false, "url": "https://www.yelp.com/biz/rose-bakery-new-york?adjust_creative=pvg3Cok-C3jUzN7Dr5Hirg&utm_campaign=yelp_api_v3&utm_medium=api_v3_business_search&utm_source=pvg3Cok-C3jUzN7Dr5Hirg", "review_count": 38, "categories": [{"alias": "bakeries", "title": "Bakeries"}], "rating": 3.5, "coordinates": {"latitude": 40.744103, "longitude": -73.981728}, "transactions": ["delivery"], "price": "$$$", "location": {"address1": "160 Lexington Ave", "address2": "", "address3": "", "city": "New York", "zip_code": "10016", "country": "US", "state": "NY", "display_address": ["160 Lexington Ave", "New York, NY 10016"]}, "phone": "+16468377754", "display_phone": "(646) 837-7754", "distance": 589.0207875114967}, {"id": "x6Py2ow_EU0YDsyjK1xZ_A", "alias": "t-swirl-crepe-new-york-21", "name": "T-Swirl Crepe", "image_url": "https://s3-media2.fl.yelpcdn.com/bphoto/x3sUM7Hk1Peaiv8WXd7vVA/o.jpg", "is_closed": false, "url": "https://www.yelp.com/biz/t-swirl-crepe-new-york-21?adjust_creative=pvg3Cok-C3jUzN7Dr5Hirg&utm_campaign=yelp_api_v3&utm_medium=api_v3_business_search&utm_source=pvg3Cok-C3jUzN7Dr5Hirg", "review_count": 26, "categories": [{"alias": "creperies", "title": "Creperies"}, {"alias": "desserts", "title": "Desserts"}, {"alias": "gluten_free", "title": "Gluten-Free"}], "rating": 4.5, "coordinates": {"latitude": 40.72913, "longitude": -73.98859}, "transactions": ["delivery", "pickup"], "price": "$", "location": {"address1": "19 St Marks Pl", "address2": "", "address3": null, "city": "New York", "zip_code": "10003", "country": "US", "state": "NY", "display_address": ["19 St Marks Pl", "New York, NY 10003"]}, "phone": "+12126140200", "display_phone": "(212) 614-0200", "distance": 1186.3436711306178}, {"id": "PjF1dqCskf3T8jH2gA66JA", "alias": "pelicana-chicken-new-york-5", "name": "Pelicana Chicken", "image_url": "https://s3-media3.fl.yelpcdn.com/bphoto/jR1T1QQQAO4OnfNLh-_f2Q/o.jpg", "is_closed": false, "url": "https://www.yelp.com/biz/pelicana-chicken-new-york-5?adjust_creative=pvg3Cok-C3jUzN7Dr5Hirg&utm_campaign=yelp_api_v3&utm_medium=api_v3_business_search&utm_source=pvg3Cok-C3jUzN7Dr5Hirg", "review_count": 93, "categories": [{"alias": "chickenshop", "title": "Chicken Shop"}, {"alias": "chicken_wings", "title": "Chicken Wings"}, {"alias": "korean", "title": "Korean"}], "rating": 3.5, "coordinates": {"latitude": 40.73102, "longitude": -73.99373}, "transactions": ["delivery", "pickup"], "price": "$$", "location": {"address1": "52 East 8th St", "address2": null, "address3": "", "city": "New York", "zip_code": "10003", "country": "US", "state": "NY", "display_address": ["52 East 8th St", "New York, NY 10003"]}, "phone": "+16467915766", "display_phone": "(646) 791-5766", "distance": 1265.749013668406}, {"id": "7qAHwsaiiK2bh404pugjNw", "alias": "the-ainsworth-east-village-new-york", "name": "The Ainsworth - East Village", "image_url": "https://s3-media4.fl.yelpcdn.com/bphoto/pmPAZa0C_HelYQRTTkc4Jg/o.jpg", "is_closed": false, "url": "https://www.yelp.com/biz/the-ainsworth-east-village-new-york?adjust_creative=pvg3Cok-C3jUzN7Dr5Hirg&utm_campaign=yelp_api_v3&utm_medium=api_v3_business_search&utm_source=pvg3Cok-C3jUzN7Dr5Hirg", "review_count": 127, "categories": [{"alias": "tradamerican", "title": "American (Traditional)"}, {"alias": "sportsbars", "title": "Sports Bars"}, {"alias": "burgers", "title": "Burgers"}], "rating": 3.0, "coordinates": {"latitude": 40.73138, "longitude": -73.98902}, "transactions": ["delivery"], "price": "$$", "location": {"address1": "64 3rd Ave", "address2": null, "address3": null, "city": "New York", "zip_code": "10003", "country": "US", "state": "NY", "display_address": ["64 3rd Ave", "New York, NY 10003"]}, "phone": "+16466924117", "display_phone": "(646) 692-4117", "distance": 986.8372877232974}, {"id": "eZ2eaBKoeqaY7C-_ZbKgPg", "alias": "the-gochujang-new-york", "name": "The Gochujang", "image_url": "https://s3-media1.fl.yelpcdn.com/bphoto/G3rong4M29LQiApTuaDErw/o.jpg", "is_closed": false, "url": "https://www.yelp.com/biz/the-gochujang-new-york?adjust_creative=pvg3Cok-C3jUzN7Dr5Hirg&utm_campaign=yelp_api_v3&utm_medium=api_v3_business_search&utm_source=pvg3Cok-C3jUzN7Dr5Hirg", "review_count": 99, "categories": [{"alias": "korean", "title": "Korean"}], "rating": 3.0, "coordinates": {"latitude": 40.747675, "longitude": -73.986274}, "transactions": ["delivery", "pickup"], "price": "$", "location": {"address1": "11 W 32nd St", "address2": "", "address3": "", "city": "New York", "zip_code": "10001", "country": "US", "state": "NY", "display_address": ["11 W 32nd St", "New York, NY 10001"]}, "phone": "+12129671678", "display_phone": "(212) 967-1678", "distance": 1022.3405070502257}, {"id": "paogBWxBRdyByOGAkln8Lw", "alias": "new-taco-express-new-york-3", "name": "New Taco Express", "image_url": "https://s3-media3.fl.yelpcdn.com/bphoto/hbvjX0S_mJGLosHl9NbuIw/o.jpg", "is_closed": false, "url": "https://www.yelp.com/biz/new-taco-express-new-york-3?adjust_creative=pvg3Cok-C3jUzN7Dr5Hirg&utm_campaign=yelp_api_v3&utm_medium=api_v3_business_search&utm_source=pvg3Cok-C3jUzN7Dr5Hirg", "review_count": 58, "categories": [{"alias": "mexican", "title": "Mexican"}], "rating": 3.0, "coordinates": {"latitude": 40.74267, "longitude": -73.98276}, "transactions": ["delivery", "pickup"], "price": "$", "location": {"address1": "130 E 28th St", "address2": "", "address3": "", "city": "New York", "zip_code": "10016", "country": "US", "state": "NY", "display_address": ["130 E 28th St", "New York, NY 10016"]}, "phone": "+12126798866", "display_phone": "(212) 679-8866", "distance": 424.4744769512305}, {"id": "z5f--L8_vB_WvSaRca7LQQ", "alias": "mala-house-new-york", "name": "Mala House", "image_url": "https://s3-media2.fl.yelpcdn.com/bphoto/AfLavsOiYvTaeybaahdVxA/o.jpg", "is_closed": false, "url": "https://www.yelp.com/biz/mala-house-new-york?adjust_creative=pvg3Cok-C3jUzN7Dr5Hirg&utm_campaign=yelp_api_v3&utm_medium=api_v3_business_search&utm_source=pvg3Cok-C3jUzN7Dr5Hirg", "review_count": 10, "categories": [{"alias": "szechuan", "title": "Szechuan"}, {"alias": "dimsum", "title": "Dim Sum"}, {"alias": "asianfusion", "title": "Asian Fusion"}], "rating": 5.0, "coordinates": {"latitude": 40.73945005575927, "longitude": -73.98913809999999}, "transactions": ["delivery", "pickup"], "price": "$$", "location": {"address1": "22 E 21st St", "address2": null, "address3": "", "city": "New York", "zip_code": "10017", "country": "US", "state": "NY", "display_address": ["22 E 21st St", "New York, NY 10017"]}, "phone": "+19298884929", "display_phone": "(929) 888-4929", "distance": 538.5835492131985}, {"id": "SD3dEkAzAi3WZeUaVSOx-w", "alias": "josie-woods-pub-new-york-2", "name": "Josie Woods Pub", "image_url": "https://s3-media3.fl.yelpcdn.com/bphoto/Iw8EwJ3FgOqoAoZGu5BtrA/o.jpg", "is_closed": false, "url": "https://www.yelp.com/biz/josie-woods-pub-new-york-2?adjust_creative=pvg3Cok-C3jUzN7Dr5Hirg&utm_campaign=yelp_api_v3&utm_medium=api_v3_business_search&utm_source=pvg3Cok-C3jUzN7Dr5Hirg", "review_count": 138, "categories": [{"alias": "pubs", "title": "Pubs"}], "rating": 3.5, "coordinates": {"latitude": 40.73014, "longitude": -73.9941599}, "transactions": ["delivery", "pickup"], "price": "$$", "location": {"address1": "11 Waverly Pl", "address2": "", "address3": "", "city": "New York", "zip_code": "10003", "country": "US", "state": "NY", "display_address": ["11 Waverly Pl", "New York, NY 10003"]}, "phone": "+12122289909", "display_phone": "(212) 228-9909", "distance": 1360.115576811086}, {"id": "a72Ef9G4VV1i-POTZJvbHg", "alias": "kim-na-food-truck-new-york", "name": "Kim Na Food Truck", "image_url": "https://s3-media1.fl.yelpcdn.com/bphoto/HGJmRGJb9xcz1YLqOmLxpw/o.jpg", "is_closed": false, "url": "https://www.yelp.com/biz/kim-na-food-truck-new-york?adjust_creative=pvg3Cok-C3jUzN7Dr5Hirg&utm_campaign=yelp_api_v3&utm_medium=api_v3_business_search&utm_source=pvg3Cok-C3jUzN7Dr5Hirg", "review_count": 18, "categories": [{"alias": "korean", "title": "Korean"}, {"alias": "foodtrucks", "title": "Food Trucks"}], "rating": 3.5, "coordinates": {"latitude": 40.7408026524036, "longitude": -73.9838092822248}, "transactions": [], "price": "$", "location": {"address1": "E 25th St Lexington Ave", "address2": "", "address3": "", "city": "New York", "zip_code": "10010", "country": "US", "state": "NY", "display_address": ["E 25th St Lexington Ave", "New York, NY 10010"]}, "phone": "", "display_phone": "", "distance": 231.6231667704352}, {"id": "fBeN2yBQsCPVAWT043W9Dg", "alias": "up-on-20-rooftop-bar-and-lounge-new-york", "name": "Up on 20 Rooftop Bar and Lounge", "image_url": "https://s3-media4.fl.yelpcdn.com/bphoto/t0gO6FGfPoChNGlZdo4Bxg/o.jpg", "is_closed": false, "url": "https://www.yelp.com/biz/up-on-20-rooftop-bar-and-lounge-new-york?adjust_creative=pvg3Cok-C3jUzN7Dr5Hirg&utm_campaign=yelp_api_v3&utm_medium=api_v3_business_search&utm_source=pvg3Cok-C3jUzN7Dr5Hirg", "review_count": 40, "categories": [{"alias": "cocktailbars", "title": "Cocktail Bars"}, {"alias": "lounges", "title": "Lounges"}], "rating": 4.0, "coordinates": {"latitude": 40.746925, "longitude": -73.987717}, "transactions": [], "price": "$$", "location": {"address1": "30-32 W 31st St", "address2": null, "address3": "", "city": "New York", "zip_code": "10001", "country": "US", "state": "NY", "display_address": ["30-32 W 31st St", "New York, NY 10001"]}, "phone": "+12123301234", "display_phone": "(212) 330-1234", "distance": 987.3658827800101}, {"id": "fhqAmrQsX45YQ9zyvZ938g", "alias": "tortazo-new-york", "name": "Tortazo", "image_url": "https://s3-media4.fl.yelpcdn.com/bphoto/XZ6TMTN1dS-7bB6u41jM0g/o.jpg", "is_closed": false, "url": "https://www.yelp.com/biz/tortazo-new-york?adjust_creative=pvg3Cok-C3jUzN7Dr5Hirg&utm_campaign=yelp_api_v3&utm_medium=api_v3_business_search&utm_source=pvg3Cok-C3jUzN7Dr5Hirg", "review_count": 31, "categories": [{"alias": "mexican", "title": "Mexican"}], "rating": 4.0, "coordinates": {"latitude": 40.74332, "longitude": -73.98924}, "transactions": ["delivery", "pickup"], "price": "$$", "location": {"address1": "1123 Broadway", "address2": null, "address3": null, "city": "New York", "zip_code": "10010", "country": "US", "state": "NY", "display_address": ["1123 Broadway", "New York, NY 10010"]}, "phone": "+12129203722", "display_phone": "(212) 920-3722", "distance": 738.7224480319068}, {"id": "FCnh2sIXE5cL9qi3rKu_RQ", "alias": "pret-a-manger-new-york-73", "name": "Pret a Manger", "image_url": "https://s3-media2.fl.yelpcdn.com/bphoto/V3C8Yd7BOtZDrz5GBjxyiw/o.jpg", "is_closed": false, "url": "https://www.yelp.com/biz/pret-a-manger-new-york-73?adjust_creative=pvg3Cok-C3jUzN7Dr5Hirg&utm_campaign=yelp_api_v3&utm_medium=api_v3_business_search&utm_source=pvg3Cok-C3jUzN7Dr5Hirg", "review_count": 31, "categories": [{"alias": "coffee", "title": "Coffee & Tea"}, {"alias": "breakfast_brunch", "title": "Breakfast & Brunch"}, {"alias": "sandwiches", "title": "Sandwiches"}], "rating": 3.5, "coordinates": {"latitude": 40.7431630554409, "longitude": -73.9843790978193}, "transactions": ["delivery", "pickup"], "price": "$", "location": {"address1": "400 Park Ave S", "address2": "", "address3": "", "city": "New York", "zip_code": "10016", "country": "US", "state": "NY", "display_address": ["400 Park Ave S", "New York, NY 10016"]}, "phone": "+12124475065", "display_phone": "(212) 447-5065", "distance": 496.00894331683384}, {"id": "eMFBizrW6-oFBOYcJcd_wA", "alias": "starbucks-new-york-300", "name": "Starbucks", "image_url": "https://s3-media4.fl.yelpcdn.com/bphoto/F9HSwosxorIeSqWFoCRrrg/o.jpg", "is_closed": false, "url": "https://www.yelp.com/biz/starbucks-new-york-300?adjust_creative=pvg3Cok-C3jUzN7Dr5Hirg&utm_campaign=yelp_api_v3&utm_medium=api_v3_business_search&utm_source=pvg3Cok-C3jUzN7Dr5Hirg", "review_count": 70, "categories": [{"alias": "coffee", "title": "Coffee & Tea"}], "rating": 3.0, "coordinates": {"latitude": 40.736534, "longitude": -73.978369}, "transactions": ["delivery"], "price": "$$", "location": {"address1": "400 E 23rd St", "address2": "", "address3": "", "city": "New York", "zip_code": "10010", "country": "US", "state": "NY", "display_address": ["400 E 23rd St", "New York, NY 10010"]}, "phone": "+12126734213", "display_phone": "(212) 673-4213", "distance": 454.0792480279057}, {"id": "0q4NOJmbJhm-zJELYs_0Tg", "alias": "etc-eatery-new-york", "name": "ETC Eatery", "image_url": "https://s3-media2.fl.yelpcdn.com/bphoto/USL5w8hFGbP-Nn5QroWQNA/o.jpg", "is_closed": false, "url": "https://www.yelp.com/biz/etc-eatery-new-york?adjust_creative=pvg3Cok-C3jUzN7Dr5Hirg&utm_campaign=yelp_api_v3&utm_medium=api_v3_business_search&utm_source=pvg3Cok-C3jUzN7Dr5Hirg", "review_count": 84, "categories": [{"alias": "candy", "title": "Candy Stores"}, {"alias": "delis", "title": "Delis"}, {"alias": "bakeries", "title": "Bakeries"}], "rating": 3.5, "coordinates": {"latitude": 40.74797, "longitude": -73.98469}, "transactions": ["delivery", "pickup"], "price": "$$", "location": {"address1": "345 5th Ave", "address2": "", "address3": null, "city": "New York", "zip_code": "10016", "country": "US", "state": "NY", "display_address": ["345 5th Ave", "New York, NY 10016"]}, "phone": "+16464100288", "display_phone": "(646) 410-0288", "distance": 1023.3747660075768}, {"id": "ycsULlWDvuj-jop3VESy4Q", "alias": "arte-restaurant-new-york-2", "name": "Arte Restaurant", "image_url": "https://s3-media2.fl.yelpcdn.com/bphoto/41eAnY78VN6-TtqQBPBsKA/o.jpg", "is_closed": false, "url": "https://www.yelp.com/biz/arte-restaurant-new-york-2?adjust_creative=pvg3Cok-C3jUzN7Dr5Hirg&utm_campaign=yelp_api_v3&utm_medium=api_v3_business_search&utm_source=pvg3Cok-C3jUzN7Dr5Hirg", "review_count": 100, "categories": [{"alias": "italian", "title": "Italian"}, {"alias": "seafood", "title": "Seafood"}, {"alias": "cocktailbars", "title": "Cocktail Bars"}], "rating": 3.5, "coordinates": {"latitude": 40.73241, "longitude": -73.99462}, "transactions": ["delivery", "pickup"], "price": "$$$", "location": {"address1": "21 E 9th St", "address2": "", "address3": "", "city": "New York", "zip_code": "10003", "country": "US", "state": "NY", "display_address": ["21 E 9th St", "New York, NY 10003"]}, "phone": "+12124730077", "display_phone": "(212) 473-0077", "distance": 1216.8983856085601}, {"id": "ULbk2oFhcWxWaQZp_L7mTQ", "alias": "the-bean-new-york-12", "name": "The Bean", "image_url": "https://s3-media2.fl.yelpcdn.com/bphoto/8vCKo3AKeSKEslk1BJ_Kdw/o.jpg", "is_closed": false, "url": "https://www.yelp.com/biz/the-bean-new-york-12?adjust_creative=pvg3Cok-C3jUzN7Dr5Hirg&utm_campaign=yelp_api_v3&utm_medium=api_v3_business_search&utm_source=pvg3Cok-C3jUzN7Dr5Hirg", "review_count": 145, "categories": [{"alias": "coffee", "title": "Coffee & Tea"}, {"alias": "juicebars", "title": "Juice Bars & Smoothies"}, {"alias": "sandwiches", "title": "Sandwiches"}], "rating": 3.5, "coordinates": {"latitude": 40.729723, "longitude": -73.9894592}, "transactions": ["delivery", "pickup"], "price": "$", "location": {"address1": "31 3rd Ave", "address2": "", "address3": null, "city": "New York", "zip_code": "10003", "country": "US", "state": "NY", "display_address": ["31 3rd Ave", "New York, NY 10003"]}, "phone": "+19172614364", "display_phone": "(917) 261-4364", "distance": 1161.6824723323914}, {"id": "BJ_vR31a2D56UEJpmkOHqQ", "alias": "flatiron-green-cafe-new-york", "name": "Flatiron Green Cafe", "image_url": "https://s3-media3.fl.yelpcdn.com/bphoto/nspO-YKOylNaL9bo4WNQbw/o.jpg", "is_closed": false, "url": "https://www.yelp.com/biz/flatiron-green-cafe-new-york?adjust_creative=pvg3Cok-C3jUzN7Dr5Hirg&utm_campaign=yelp_api_v3&utm_medium=api_v3_business_search&utm_source=pvg3Cok-C3jUzN7Dr5Hirg", "review_count": 34, "categories": [{"alias": "juicebars", "title": "Juice Bars & Smoothies"}, {"alias": "icecream", "title": "Ice Cream & Frozen Yogurt"}], "rating": 3.5, "coordinates": {"latitude": 40.7411620279373, "longitude": -73.9893471081895}, "transactions": ["delivery", "pickup"], "price": "$", "location": {"address1": "Flatiron Public Plz S", "address2": "", "address3": "", "city": "New York", "zip_code": "10010", "country": "US", "state": "NY", "display_address": ["Flatiron Public Plz S", "New York, NY 10010"]}, "phone": "+19175046209", "display_phone": "(917) 504-6209", "distance": 608.3627294807071}, {"id": "KDse4OHKoryUA4-MUysuag", "alias": "the-ready-rooftop-bar-new-york", "name": "The Ready Rooftop Bar", "image_url": "https://s3-media2.fl.yelpcdn.com/bphoto/9IFVL7ABRzwZH6d5OEdrPA/o.jpg", "is_closed": false, "url": "https://www.yelp.com/biz/the-ready-rooftop-bar-new-york?adjust_creative=pvg3Cok-C3jUzN7Dr5Hirg&utm_campaign=yelp_api_v3&utm_medium=api_v3_business_search&utm_source=pvg3Cok-C3jUzN7Dr5Hirg", "review_count": 48, "categories": [{"alias": "tacos", "title": "Tacos"}, {"alias": "cocktailbars", "title": "Cocktail Bars"}], "rating": 3.5, "coordinates": {"latitude": 40.73157115001156, "longitude": -73.98943167557184}, "transactions": [], "location": {"address1": "112 E 11th St", "address2": null, "address3": "", "city": "New York", "zip_code": "10003", "country": "US", "state": "NY", "display_address": ["112 E 11th St", "New York, NY 10003"]}, "phone": "+16469082125", "display_phone": "(646) 908-2125", "distance": 985.4982691605554}, {"id": "b9kfEjoMXIPARUyrYMurqw", "alias": "chelsea-papaya-new-york", "name": "Chelsea Papaya", "image_url": "https://s3-media2.fl.yelpcdn.com/bphoto/mFKCllIaTi827OLbv1T7Rw/o.jpg", "is_closed": false, "url": "https://www.yelp.com/biz/chelsea-papaya-new-york?adjust_creative=pvg3Cok-C3jUzN7Dr5Hirg&utm_campaign=yelp_api_v3&utm_medium=api_v3_business_search&utm_source=pvg3Cok-C3jUzN7Dr5Hirg", "review_count": 137, "categories": [{"alias": "hotdog", "title": "Hot Dogs"}, {"alias": "tradamerican", "title": "American (Traditional)"}, {"alias": "breakfast_brunch", "title": "Breakfast & Brunch"}], "rating": 3.5, "coordinates": {"latitude": 40.7441735851668, "longitude": -73.9953335752055}, "transactions": ["delivery", "pickup"], "price": "$", "location": {"address1": "171 W 23rd St", "address2": "", "address3": "", "city": "New York", "zip_code": "10011", "country": "US", "state": "NY", "display_address": ["171 W 23rd St", "New York, NY 10011"]}, "phone": "+12123529060", "display_phone": "(212) 352-9060", "distance": 1210.181514739786}, {"id": "vPbJRg5umcRMELTDsJik_A", "alias": "sariku-sushi-and-hong-kong-noodle-new-york", "name": "Sariku Sushi & Hong Kong Noodle", "image_url": "https://s3-media4.fl.yelpcdn.com/bphoto/RGBUFDV_km1Ujcp3N3Csmw/o.jpg", "is_closed": false, "url": "https://www.yelp.com/biz/sariku-sushi-and-hong-kong-noodle-new-york?adjust_creative=pvg3Cok-C3jUzN7Dr5Hirg&utm_campaign=yelp_api_v3&utm_medium=api_v3_business_search&utm_source=pvg3Cok-C3jUzN7Dr5Hirg", "review_count": 40, "categories": [{"alias": "chinese", "title": "Chinese"}, {"alias": "japanese", "title": "Japanese"}], "rating": 3.5, "coordinates": {"latitude": 40.7444, "longitude": -73.98146}, "transactions": ["delivery", "pickup"], "price": "$", "location": {"address1": "174 Lexington Ave", "address2": "", "address3": "", "city": "New York", "zip_code": "10016", "country": "US", "state": "NY", "display_address": ["174 Lexington Ave", "New York, NY 10016"]}, "phone": "+12126891025", "display_phone": "(212) 689-1025", "distance": 624.7039153494582}, {"id": "JYE16G0z-wo1MTyYchhVCA", "alias": "manzo-at-eataly-flatiron-new-york", "name": "Manzo at Eataly Flatiron", "image_url": "https://s3-media4.fl.yelpcdn.com/bphoto/mzNN7ihpHBO3EIca_PEf5w/o.jpg", "is_closed": false, "url": "https://www.yelp.com/biz/manzo-at-eataly-flatiron-new-york?adjust_creative=pvg3Cok-C3jUzN7Dr5Hirg&utm_campaign=yelp_api_v3&utm_medium=api_v3_business_search&utm_source=pvg3Cok-C3jUzN7Dr5Hirg", "review_count": 329, "categories": [{"alias": "italian", "title": "Italian"}, {"alias": "bars", "title": "Bars"}], "rating": 3.5, "coordinates": {"latitude": 40.7423476668244, "longitude": -73.9898968277084}, "transactions": [], "price": "$$$", "location": {"address1": "200 5th Ave", "address2": "", "address3": "", "city": "New York", "zip_code": "10010", "country": "US", "state": "NY", "display_address": ["200 5th Ave", "New York, NY 10010"]}, "phone": "+12122292180", "display_phone": "(212) 229-2180", "distance": 712.7794965308874}], "total": 1700, "region": {"center": {"longitude": -73.98279190063477, "latitude": 40.73886749270102}}}